{
    "sites": [{
            "num": "1",
            "name": "科技馆",
            "lat": "27.994769",
            "lng": "120.707075"
        },
        {
            "num": "2",
            "name": "温州大剧院",
            "lat": "27.996826",
            "lng": "120.709237"
        },
        {
            "num": "3",
            "name": "吴桥路加油站",
            "lat": "27.999856",
            "lng": "120.665333"
        },
        {
            "num": "4",
            "name": "银泰百货",
            "lat": "28.012334",
            "lng": "120.671272"
        },
        {
            "num": "5",
            "name": "星河广场",
            "lat": "28.028095",
            "lng": "120.654656"
        },
        {
            "num": "6",
            "name": "绣山卫生院",
            "lat": "28.001347",
            "lng": "120.711201"
        },
        {
            "num": "7",
            "name": "市政府西",
            "lat": "28.000996",
            "lng": "120.705331"
        },
        {
            "num": "8",
            "name": "市政府东",
            "lat": "28.001865",
            "lng": "120.715799"
        },
        {
            "num": "9",
            "name": "小南门立交桥",
            "lat": "28.01597",
            "lng": "120.666728"
        },
        {
            "num": "10",
            "name": "市九中",
            "lat": "28.010301",
            "lng": "120.709863"
        },
        {
            "num": "11",
            "name": "鹿城区审批中心",
            "lat": "27.998644",
            "lng": "120.702255"
        },
        {
            "num": "12",
            "name": "桥儿头公交站",
            "lat": "28.000135",
            "lng": "120.681818"
        },
        {
            "num": "13",
            "name": "公共自行车中心",
            "lat": "28.006259",
            "lng": "120.712758"
        },
        {
            "num": "14",
            "name": "南浦医院",
            "lat": "27.996284",
            "lng": "120.68141"
        },
        {
            "num": "15",
            "name": "温州建国医院对面",
            "lat": "27.987655",
            "lng": "120.672476"
        },
        {
            "num": "16",
            "name": "金色家园",
            "lat": "27.994936",
            "lng": "120.670681"
        },
        {
            "num": "18",
            "name": "区政府东",
            "lat": "28.020737",
            "lng": "120.661726"
        },
        {
            "num": "19",
            "name": "开太百货",
            "lat": "28.016448",
            "lng": "120.669692"
        },
        {
            "num": "20",
            "name": "南浦桥",
            "lat": "28.001698",
            "lng": "120.681448"
        },
        {
            "num": "21",
            "name": "东阿外楼",
            "lat": "28.022637",
            "lng": "120.672613"
        },
        {
            "num": "22",
            "name": "鱼鳞浃",
            "lat": "27.989131",
            "lng": "120.689394"
        },
        {
            "num": "23",
            "name": "温迪路农贸市场",
            "lat": "27.999736",
            "lng": "120.684498"
        },
        {
            "num": "24",
            "name": "春晖路口",
            "lat": "27.998899",
            "lng": "120.68659"
        },
        {
            "num": "25",
            "name": "鹿城法院",
            "lat": "28.001706",
            "lng": "120.693432"
        },
        {
            "num": "26",
            "name": "南浦小区",
            "lat": "28.004839",
            "lng": "120.693023"
        },
        {
            "num": "27",
            "name": "锦江家园",
            "lat": "27.993652",
            "lng": "120.698727"
        },
        {
            "num": "28",
            "name": "上田菜场",
            "lat": "27.992852",
            "lng": "120.711336"
        },
        {
            "num": "29",
            "name": "市审批中心",
            "lat": "27.99903",
            "lng": "120.700558"
        },
        {
            "num": "30",
            "name": "绣山中学",
            "lat": "28.001427",
            "lng": "120.700611"
        },
        {
            "num": "31",
            "name": "云锦大厦",
            "lat": "27.995933",
            "lng": "120.692034"
        },
        {
            "num": "32",
            "name": "数码广场",
            "lat": "28.017556",
            "lng": "120.683739"
        },
        {
            "num": "33",
            "name": "国光大厦",
            "lat": "27.988118",
            "lng": "120.693252"
        },
        {
            "num": "34",
            "name": "广信大厦",
            "lat": "28.01978",
            "lng": "120.660032"
        },
        {
            "num": "35",
            "name": "安平大厦",
            "lat": "28.024978",
            "lng": "120.657095"
        },
        {
            "num": "36",
            "name": "工人文化宫",
            "lat": "28.027417",
            "lng": "120.654957"
        },
        {
            "num": "37",
            "name": "松台广场",
            "lat": "28.014224",
            "lng": "120.658858"
        },
        {
            "num": "38",
            "name": "市二医院",
            "lat": "28.026206",
            "lng": "120.664149"
        },
        {
            "num": "39",
            "name": "墨斗小区",
            "lat": "28.02603",
            "lng": "120.660559"
        },
        {
            "num": "40",
            "name": "海悦名邸酒店",
            "lat": "28.030088",
            "lng": "120.665"
        },
        {
            "num": "41",
            "name": "安澜轮渡码头",
            "lat": "28.030885",
            "lng": "120.668238"
        },
        {
            "num": "42",
            "name": "街心公园",
            "lat": "28.017612",
            "lng": "120.673528"
        },
        {
            "num": "43",
            "name": "群艺大楼",
            "lat": "28.014039",
            "lng": "120.662563"
        },
        {
            "num": "44",
            "name": "公园路新华书店",
            "lat": "28.018824",
            "lng": "120.6683"
        },
        {
            "num": "45",
            "name": "白鹿洲公园",
            "lat": "28.002989",
            "lng": "120.673447"
        },
        {
            "num": "46",
            "name": "巽山公园",
            "lat": "28.007048",
            "lng": "120.673095"
        },
        {
            "num": "47",
            "name": "阳光花苑",
            "lat": "28.011186",
            "lng": "120.674381"
        },
        {
            "num": "48",
            "name": "沃尔玛（欧洲城）",
            "lat": "28.014056",
            "lng": "120.67049"
        },
        {
            "num": "49",
            "name": "医学院",
            "lat": "28.013665",
            "lng": "120.679234"
        },
        {
            "num": "50",
            "name": "中西医结合医院",
            "lat": "28.004943",
            "lng": "120.701476"
        },
        {
            "num": "51",
            "name": "新城车站",
            "lat": "28.004154",
            "lng": "120.712655"
        },
        {
            "num": "52",
            "name": "裕达大厦农业银行",
            "lat": "28.00051",
            "lng": "120.690555"
        },
        {
            "num": "53",
            "name": "马鞍池公园北",
            "lat": "28.007948",
            "lng": "120.669775"
        },
        {
            "num": "54",
            "name": "吴桥路观松楼",
            "lat": "28.00404",
            "lng": "120.664546"
        },
        {
            "num": "55",
            "name": "中山公园北",
            "lat": "28.019419",
            "lng": "120.673173"
        },
        {
            "num": "56",
            "name": "五马美食林",
            "lat": "28.012493",
            "lng": "120.636724"
        },
        {
            "num": "57",
            "name": "建设大厦",
            "lat": "28.015523",
            "lng": "120.676323"
        },
        {
            "num": "58",
            "name": "新城大道体检中心",
            "lat": "28.002686",
            "lng": "120.717663"
        },
        {
            "num": "59",
            "name": "文景花苑东",
            "lat": "28.016105",
            "lng": "120.683324"
        },
        {
            "num": "60",
            "name": "公园路去茶去",
            "lat": "28.019948",
            "lng": "120.670917"
        },
        {
            "num": "61",
            "name": "丽都大厦",
            "lat": "28.025624",
            "lng": "120.675805"
        },
        {
            "num": "62",
            "name": "大南门农贸",
            "lat": "28.013426",
            "lng": "120.669105"
        },
        {
            "num": "63",
            "name": "体育中心西",
            "lat": "28.006705",
            "lng": "120.682745"
        },
        {
            "num": "64",
            "name": "县前头",
            "lat": "28.02167",
            "lng": "120.669677"
        },
        {
            "num": "65",
            "name": "小南门电力局",
            "lat": "28.002463",
            "lng": "120.657393"
        },
        {
            "num": "66",
            "name": "体育中心南",
            "lat": "28.006605",
            "lng": "120.682608"
        },
        {
            "num": "67",
            "name": "大自然家园",
            "lat": "27.99622",
            "lng": "120.718183"
        },
        {
            "num": "68",
            "name": "站前东小区",
            "lat": "27.991563",
            "lng": "120.693894"
        },
        {
            "num": "69",
            "name": "时代广场",
            "lat": "28.004496",
            "lng": "120.690924"
        },
        {
            "num": "70",
            "name": "区地税局",
            "lat": "27.997464",
            "lng": "120.691232"
        },
        {
            "num": "71",
            "name": "国际大酒店",
            "lat": "28.015475",
            "lng": "120.669662"
        },
        {
            "num": "72",
            "name": "质量监督局",
            "lat": "28.008092",
            "lng": "120.659824"
        },
        {
            "num": "73",
            "name": "汤家桥路英豪花园",
            "lat": "28.003572",
            "lng": "120.720268"
        },
        {
            "num": "74",
            "name": "方正大厦",
            "lat": "28.000789",
            "lng": "120.670091"
        },
        {
            "num": "75",
            "name": "龙方家园",
            "lat": "27.990143",
            "lng": "120.676439"
        },
        {
            "num": "76",
            "name": "宏源路数码大厦",
            "lat": "28.004672",
            "lng": "120.715158"
        },
        {
            "num": "77",
            "name": "喜来登酒店",
            "lat": "28.006426",
            "lng": "120.690491"
        },
        {
            "num": "78",
            "name": "桥儿头交运国旅",
            "lat": "28.012956",
            "lng": "120.698075"
        },
        {
            "num": "79",
            "name": "世纪联华",
            "lat": "28.020833",
            "lng": "120.642505"
        },
        {
            "num": "80",
            "name": "牛山北路文杰酒业",
            "lat": "28.008467",
            "lng": "120.664259"
        },
        {
            "num": "81",
            "name": "火车站对面",
            "lat": "27.986037",
            "lng": "120.691609"
        },
        {
            "num": "82",
            "name": "海港大厦",
            "lat": "28.030359",
            "lng": "120.669558"
        },
        {
            "num": "83",
            "name": "南塘一组团",
            "lat": "28.001395",
            "lng": "120.678236"
        },
        {
            "num": "84",
            "name": "南浦街道",
            "lat": "27.993915",
            "lng": "120.687275"
        },
        {
            "num": "85",
            "name": "市图书馆",
            "lat": "27.996467",
            "lng": "120.70327"
        },
        {
            "num": "86",
            "name": "测试点",
            "lat": "28.011082",
            "lng": "120.690398"
        },
        {
            "num": "87",
            "name": "雪山路-勤奋路口",
            "lat": "28.013793",
            "lng": "120.647356"
        },
        {
            "num": "89",
            "name": "妙果寺",
            "lat": "28.01416",
            "lng": "120.657316"
        },
        {
            "num": "90",
            "name": "拉菲度假酒店",
            "lat": "28.030311",
            "lng": "120.673594"
        },
        {
            "num": "91",
            "name": "中瑞曼哈顿",
            "lat": "28.028518",
            "lng": "120.67849"
        },
        {
            "num": "92",
            "name": "十四中学",
            "lat": "28.023081",
            "lng": "120.68236"
        },
        {
            "num": "93",
            "name": "瓯江路鹿城广场",
            "lat": "28.0232",
            "lng": "120.690103"
        },
        {
            "num": "94",
            "name": "惠民路与航标路口",
            "lat": "28.015785",
            "lng": "120.697244"
        },
        {
            "num": "95",
            "name": "特警支队",
            "lat": "28.010915",
            "lng": "120.703972"
        },
        {
            "num": "96",
            "name": "鹿城实验中学",
            "lat": "28.016679",
            "lng": "120.70847"
        },
        {
            "num": "97",
            "name": "江滨路府东路口",
            "lat": "28.020601",
            "lng": "120.708934"
        },
        {
            "num": "98",
            "name": "市公安局",
            "lat": "28.007821",
            "lng": "120.693438"
        },
        {
            "num": "99",
            "name": "公交上徒门始发站",
            "lat": "28.011086",
            "lng": "120.704592"
        },
        {
            "num": "100",
            "name": "蒲鞋街道卫生中心",
            "lat": "28.008834",
            "lng": "120.698346"
        },
        {
            "num": "101",
            "name": "洪殿奥康",
            "lat": "28.002886",
            "lng": "120.690763"
        },
        {
            "num": "102",
            "name": "府东家园公交站",
            "lat": "28.015762",
            "lng": "120.704377"
        },
        {
            "num": "103",
            "name": "新南亚大酒店",
            "lat": "28.019262",
            "lng": "120.68868"
        },
        {
            "num": "104",
            "name": "东门商业步行街",
            "lat": "28.026407",
            "lng": "120.675554"
        },
        {
            "num": "105",
            "name": "温州十九中",
            "lat": "28.006301",
            "lng": "120.6996"
        },
        {
            "num": "106",
            "name": "金桥路桃源居",
            "lat": "28.00885",
            "lng": "120.693438"
        },
        {
            "num": "107",
            "name": "远东大酒店",
            "lat": "28.017038",
            "lng": "120.686564"
        },
        {
            "num": "109",
            "name": "浙江工贸学院",
            "lat": "28.008268",
            "lng": "120.70684"
        },
        {
            "num": "110",
            "name": "杨府山公园停车场",
            "lat": "28.011258",
            "lng": "120.710647"
        },
        {
            "num": "111",
            "name": "巨一花苑",
            "lat": "28.013538",
            "lng": "120.70661"
        },
        {
            "num": "112",
            "name": "绿洲花园农行外",
            "lat": "28.007805",
            "lng": "120.71795"
        },
        {
            "num": "113",
            "name": "黎明街道卫生中心",
            "lat": "28.00873",
            "lng": "120.727692"
        },
        {
            "num": "114",
            "name": "新田园人本超市",
            "lat": "28.011329",
            "lng": "120.72754"
        },
        {
            "num": "115",
            "name": "汤家桥北云中花园",
            "lat": "28.006243",
            "lng": "120.721576"
        },
        {
            "num": "116",
            "name": "汤家桥北路新田路",
            "lat": "28.016193",
            "lng": "120.722819"
        },
        {
            "num": "117",
            "name": "江滨路车站大道",
            "lat": "28.022243",
            "lng": "120.689808"
        },
        {
            "num": "118",
            "name": "上陡门住宅公交站",
            "lat": "28.010898",
            "lng": "120.70092"
        },
        {
            "num": "119",
            "name": "学院东路丰源路口",
            "lat": "28.007758",
            "lng": "120.718666"
        },
        {
            "num": "120",
            "name": "会展中心",
            "lat": "28.022483",
            "lng": "120.724677"
        },
        {
            "num": "121",
            "name": "市电力局",
            "lat": "28.002463",
            "lng": "120.657393"
        },
        {
            "num": "122",
            "name": "温八医",
            "lat": "28.003851",
            "lng": "120.659893"
        },
        {
            "num": "123",
            "name": "杏花路十七中路口",
            "lat": "28.007742",
            "lng": "120.660225"
        },
        {
            "num": "124",
            "name": "马鞍池路杏花路口",
            "lat": "28.006593",
            "lng": "120.656068"
        },
        {
            "num": "125",
            "name": "东南剧院",
            "lat": "28.008005",
            "lng": "120.689207"
        },
        {
            "num": "126",
            "name": "学院大厦",
            "lat": "28.012143",
            "lng": "120.689563"
        },
        {
            "num": "127",
            "name": "人力资源社保局",
            "lat": "28.016472",
            "lng": "120.678748"
        },
        {
            "num": "128",
            "name": "马鞍池吴桥路口",
            "lat": "28.008523",
            "lng": "120.665481"
        },
        {
            "num": "129",
            "name": "马鞍池西路89号",
            "lat": "28.007957",
            "lng": "120.663368"
        },
        {
            "num": "130",
            "name": "水心邮电",
            "lat": "28.007352",
            "lng": "120.65871"
        },
        {
            "num": "131",
            "name": "水心汇昌路口",
            "lat": "28.005343",
            "lng": "120.650222"
        },
        {
            "num": "132",
            "name": "浙南农贸市场对面",
            "lat": "27.999122",
            "lng": "120.650972"
        },
        {
            "num": "133",
            "name": "清明桥站",
            "lat": "28.012362",
            "lng": "120.653535"
        },
        {
            "num": "134",
            "name": "杏花路水心菜场",
            "lat": "28.006078",
            "lng": "120.65528"
        },
        {
            "num": "135",
            "name": "温州大厦",
            "lat": "28.012884",
            "lng": "120.660993"
        },
        {
            "num": "136",
            "name": "瓯昌饭店",
            "lat": "28.011688",
            "lng": "120.651321"
        },
        {
            "num": "137",
            "name": "大世界超市",
            "lat": "28.020833",
            "lng": "120.642505"
        },
        {
            "num": "138",
            "name": "西城菜场",
            "lat": "28.022268",
            "lng": "120.64253"
        },
        {
            "num": "139",
            "name": "瓯海二高",
            "lat": "28.007152",
            "lng": "120.651826"
        },
        {
            "num": "140",
            "name": "水心过境路口",
            "lat": "28.005852",
            "lng": "120.649839"
        },
        {
            "num": "141",
            "name": "勤奋路花坦小区",
            "lat": "28.014184",
            "lng": "120.648986"
        },
        {
            "num": "142",
            "name": "勤奋路市财政局",
            "lat": "28.000908",
            "lng": "120.709001"
        },
        {
            "num": "143",
            "name": "粗糠桥公交站",
            "lat": "28.021319",
            "lng": "120.646854"
        },
        {
            "num": "144",
            "name": "粗糠桥",
            "lat": "28.023687",
            "lng": "120.646323"
        },
        {
            "num": "145",
            "name": "百里路勤奋路口",
            "lat": "28.026035",
            "lng": "120.648825"
        },
        {
            "num": "146",
            "name": "人才大厦",
            "lat": "28.010684",
            "lng": "120.704921"
        },
        {
            "num": "147",
            "name": "杨府山南大门",
            "lat": "28.01467",
            "lng": "120.710925"
        },
        {
            "num": "148",
            "name": "物华天宝",
            "lat": "28.005397",
            "lng": "120.70876"
        },
        {
            "num": "149",
            "name": "均瑶宾馆对面",
            "lat": "28.013929",
            "lng": "120.688326"
        },
        {
            "num": "150",
            "name": "滨江街道办事处",
            "lat": "28.010221",
            "lng": "120.698038"
        },
        {
            "num": "151",
            "name": "金迅达大厦",
            "lat": "28.023304",
            "lng": "120.688178"
        },
        {
            "num": "152",
            "name": "迎潮大厦",
            "lat": "28.027991",
            "lng": "120.650834"
        },
        {
            "num": "153",
            "name": "妇女儿童中心",
            "lat": "28.025536",
            "lng": "120.633689"
        },
        {
            "num": "154",
            "name": "黎明路电信大厦",
            "lat": "28.018696",
            "lng": "120.675974"
        },
        {
            "num": "155",
            "name": "时代海景",
            "lat": "28.026915",
            "lng": "120.645266"
        },
        {
            "num": "156",
            "name": "三桥下",
            "lat": "28.026584",
            "lng": "120.633442"
        },
        {
            "num": "157",
            "name": "广化街道",
            "lat": "28.015475",
            "lng": "120.639266"
        },
        {
            "num": "158",
            "name": "过境路黄龙商贸城",
            "lat": "28.020971",
            "lng": "120.633617"
        },
        {
            "num": "159",
            "name": "公交集团",
            "lat": "28.019996",
            "lng": "120.640243"
        },
        {
            "num": "160",
            "name": "温州石化总公司",
            "lat": "28.016105",
            "lng": "120.692973"
        },
        {
            "num": "161",
            "name": "黄龙商贸城北",
            "lat": "28.021971",
            "lng": "120.730007"
        },
        {
            "num": "162",
            "name": "望江路广化桥路口",
            "lat": "28.026114",
            "lng": "120.639802"
        },
        {
            "num": "163",
            "name": "九山公园",
            "lat": "28.014901",
            "lng": "120.655801"
        },
        {
            "num": "164",
            "name": "温四中",
            "lat": "28.020849",
            "lng": "120.651515"
        },
        {
            "num": "165",
            "name": "过境路宽带路口",
            "lat": "27.996379",
            "lng": "120.657894"
        },
        {
            "num": "166",
            "name": "南郊派出所",
            "lat": "27.995694",
            "lng": "120.675294"
        },
        {
            "num": "167",
            "name": "双龙路王子花苑",
            "lat": "27.991922",
            "lng": "120.68426"
        },
        {
            "num": "168",
            "name": "上村小区",
            "lat": "28.012589",
            "lng": "120.681113"
        },
        {
            "num": "169",
            "name": "帆影广场对面",
            "lat": "28.026301",
            "lng": "120.639969"
        },
        {
            "num": "170",
            "name": "银都花园",
            "lat": "28.003133",
            "lng": "120.721747"
        },
        {
            "num": "171",
            "name": "大士门石坦小学",
            "lat": "28.017739",
            "lng": "120.65674"
        },
        {
            "num": "172",
            "name": "东方灯具市场",
            "lat": "28.021943",
            "lng": "120.678164"
        },
        {
            "num": "173",
            "name": "滨江美景园",
            "lat": "28.022236",
            "lng": "120.697539"
        },
        {
            "num": "174",
            "name": "信河嘉会里路口",
            "lat": "27.994928",
            "lng": "120.657787"
        },
        {
            "num": "175",
            "name": "百里小学",
            "lat": "28.027202",
            "lng": "120.652099"
        },
        {
            "num": "176",
            "name": "马鞍池南",
            "lat": "28.007734",
            "lng": "120.669479"
        },
        {
            "num": "177",
            "name": "都市花园",
            "lat": "28.025991",
            "lng": "120.681783"
        },
        {
            "num": "178",
            "name": "鹿城区公安局",
            "lat": "28.021845",
            "lng": "120.662696"
        },
        {
            "num": "179",
            "name": "国际贸易中心",
            "lat": "28.017739",
            "lng": "120.68117"
        },
        {
            "num": "180",
            "name": "繁华公寓",
            "lat": "28.024938",
            "lng": "120.680868"
        },
        {
            "num": "181",
            "name": "鹿城路嘉乐迪",
            "lat": "28.015348",
            "lng": "120.664547"
        }
    ]
}